meta:
  dpi: 200
  title: 杭州临平区2025年重点污染源单位地理分布图
  subtitle: 数据来源：杭州市生态环境局2025年度环境监管重点单位名录  |  共104家  |  坐标：高德地图
  output_path: ./杭州_临平区_2025_output.png
map:
  figsize:
  - 18
  - 14
  padding: 500
  zoom: 12
  basemap_alpha: 0.95
gaode:
  key: ''
  rate_limit: 0.15
  cache_file: /Users/wong/.hermes/code/map2image/data/杭州/geocode_cache_杭州.json
  city: 杭州
  provider: gaode
risk_zones:
  enabled: true
  radius_meters: 1000
  fill_color: '#FF4444'
  fill_alpha: 0.12
  edge_color: '#CC0000'
  edge_width: 0.8
  edge_alpha: 0.25
boundary:
  coords: []
categories:
  水环境:
    display: 水环境重点排污
    color: '#CC0000'
    marker: o
  大气环境:
    display: 大气环境重点排污
    color: '#FF2200'
    marker: o
  土壤污染:
    display: 土壤污染重点监管
    color: '#FF6600'
    marker: o
  环境风险:
    display: 环境风险重点管控
    color: '#9933CC'
    marker: o
  噪声:
    display: 噪声重点排污
    color: '#0066CC'
    marker: ^
  辐射安全:
    display: 辐射安全许可证
    color: '#9933CC'
    marker: '*'
  地下水:
    display: 地下水污染防治
    color: '#0099CC'
    marker: s
enterprises:
- name: 贝达药业股份有限公司（五洲路厂区）
  address: ''
  label: 贝达药业股份有限公司（五洲路厂区）
  data_source: ''
  source_type: official
  data_date: 2025-03
  categories:
  - 环境风险
  district: 临平区
  lat: 30.419154
  lon: 120.299222
  geocode_level: 区县
- name: 贝达药业股份有限公司（兴中路厂区）
  address: ''
  label: 贝达药业股份有限公司（兴中路厂区）
  data_source: ''
  source_type: official
  data_date: 2025-03
  categories:
  - 环境风险
  district: 临平区
  lat: 30.419154
  lon: 120.299222
  geocode_level: 区县
- name: 杭州宝晶生物股份有限公司
  address: ''
  label: 杭州宝晶生物股份有限公司
  data_source: ''
  source_type: official
  data_date: 2025-03
  categories:
  - 环境风险
  district: 临平区
  lat: 30.466165
  lon: 120.164108
  geocode_level: 兴趣点
- name: 杭州博茵生物技术有限公司
  address: ''
  label: 杭州博茵生物技术有限公司
  data_source: ''
  source_type: official
  data_date: 2025-03
  categories:
  - 环境风险
  district: 临平区
  lat: 30.419154
  lon: 120.299222
  geocode_level: 区县
- name: 杭州创伟纺织有限公司
  address: ''
  label: 杭州创伟纺织有限公司
  data_source: ''
  source_type: official
  data_date: 2025-03
  categories:
  - 环境风险
  district: 临平区
  lat: 30.430335
  lon: 120.198326
  geocode_level: 兴趣点
- name: 杭州富瑞司纺织染整有限公司
  address: ''
  label: 杭州富瑞司纺织染整有限公司
  data_source: ''
  source_type: official
  data_date: 2025-03
  categories:
  - 环境风险
  district: 临平区
  lat: 30.454176
  lon: 120.313557
  geocode_level: 兴趣点
- name: 杭州海的动力机械股份有限公司
  address: ''
  label: 杭州海的动力机械股份有限公司
  data_source: ''
  source_type: official
  data_date: 2025-03
  categories:
  - 环境风险
  district: 临平区
  lat: 30.441953
  lon: 120.248136
  geocode_level: 兴趣点
- name: 杭州皓阳生物技术有限公司兴中路厂区
  address: ''
  label: 杭州皓阳生物技术有限公司兴中路厂区
  data_source: ''
  source_type: official
  data_date: 2025-03
  categories:
  - 环境风险
  district: 临平区
  lat: 30.423882
  lon: 120.269016
  geocode_level: 道路
- name: 杭州华帆织造有限公司
  address: ''
  label: 杭州华帆织造有限公司
  data_source: ''
  source_type: official
  data_date: 2025-03
  categories:
  - 环境风险
  district: 临平区
  lat: 30.419154
  lon: 120.299222
  geocode_level: 区县
- name: 杭州金利丝业有限公司
  address: ''
  label: 杭州金利丝业有限公司
  data_source: ''
  source_type: official
  data_date: 2025-03
  categories:
  - 环境风险
  district: 临平区
  lat: 30.494367
  lon: 120.218344
  geocode_level: 兴趣点
- name: 杭州骏马纺织有限公司
  address: ''
  label: 杭州骏马纺织有限公司
  data_source: ''
  source_type: official
  data_date: 2025-03
  categories:
  - 环境风险
  district: 临平区
  lat: 30.399333
  lon: 120.143393
  geocode_level: 兴趣点
- name: 杭州老板电器股份有限公司（兴中路A 区）
  address: ''
  label: 杭州老板电器股份有限公司（兴中路A 区）
  data_source: ''
  source_type: official
  data_date: 2025-03
  categories:
  - 环境风险
  district: 临平区
  lat: 30.419154
  lon: 120.299222
  geocode_level: 区县
- name: 杭州立佳环境服务有限公司
  address: ''
  label: 杭州立佳环境服务有限公司
  data_source: ''
  source_type: official
  data_date: 2025-03
  categories:
  - 环境风险
  district: 临平区
  lat: 30.396904
  lon: 120.223135
  geocode_level: 兴趣点
- name: 杭州临平净水有限公司
  address: ''
  label: 杭州临平净水有限公司
  data_source: ''
  source_type: official
  data_date: 2025-03
  categories:
  - 环境风险
  district: 临平区
  lat: 30.384927
  lon: 120.315107
  geocode_level: 兴趣点
- name: 杭州临平净水有限公司（崇贤）
  address: ''
  label: 杭州临平净水有限公司（崇贤）
  data_source: ''
  source_type: official
  data_date: 2025-03
  categories:
  - 环境风险
  district: 临平区
  lat: 30.384927
  lon: 120.315107
  geocode_level: 兴趣点
- name: 杭州临平净水有限公司（开发区）
  address: ''
  label: 杭州临平净水有限公司（开发区）
  data_source: ''
  source_type: official
  data_date: 2025-03
  categories:
  - 环境风险
  district: 临平区
  lat: 30.384927
  lon: 120.315107
  geocode_level: 兴趣点
- name: 杭州临平净水有限公司（塘栖）
  address: ''
  label: 杭州临平净水有限公司（塘栖）
  data_source: ''
  source_type: official
  data_date: 2025-03
  categories:
  - 环境风险
  district: 临平区
  lat: 30.384927
  lon: 120.315107
  geocode_level: 兴趣点
- name: 杭州临平旺盛织造厂
  address: ''
  label: 杭州临平旺盛织造厂
  data_source: ''
  source_type: official
  data_date: 2025-03
  categories:
  - 环境风险
  district: 临平区
  lat: 30.419154
  lon: 120.299222
  geocode_level: 区县
- name: 杭州迷妮数码科技有限公司
  address: ''
  label: 杭州迷妮数码科技有限公司
  data_source: ''
  source_type: official
  data_date: 2025-03
  categories:
  - 环境风险
  district: 临平区
  lat: 30.459692
  lon: 120.285261
  geocode_level: 兴趣点
- name: 杭州民生健康药业股份有限公司
  address: ''
  label: 杭州民生健康药业股份有限公司
  data_source: ''
  source_type: official
  data_date: 2025-03
  categories:
  - 环境风险
  district: 临平区
  lat: 30.187543
  lon: 120.206019
  geocode_level: 跨区
- name: 杭州民生药业股份有限公司
  address: ''
  label: 杭州民生药业股份有限公司
  data_source: ''
  source_type: official
  data_date: 2025-03
  categories:
  - 环境风险
  district: 临平区
  lat: 30.450957
  lon: 120.318878
  geocode_level: 兴趣点
- name: 杭州南都动力科技有限公司
  address: ''
  label: 杭州南都动力科技有限公司
  data_source: ''
  source_type: official
  data_date: 2025-03
  categories:
  - 环境风险
  district: 临平区
  lat: 30.449352
  lon: 120.250534
  geocode_level: 兴趣点
- name: 杭州诺邦无纺股份有限公司
  address: ''
  label: 杭州诺邦无纺股份有限公司
  data_source: ''
  source_type: official
  data_date: 2025-03
  categories:
  - 环境风险
  district: 临平区
  lat: 30.455651
  lon: 120.291699
  geocode_level: 兴趣点
- name: 杭州启承纺织品整理有限公司
  address: ''
  label: 杭州启承纺织品整理有限公司
  data_source: ''
  source_type: official
  data_date: 2025-03
  categories:
  - 环境风险
  district: 临平区
  lat: 30.419154
  lon: 120.299222
  geocode_level: 区县
- name: 杭州市临平区第一人民医院
  address: ''
  label: 杭州市临平区第一人民医院
  data_source: ''
  source_type: official
  data_date: 2025-03
  categories:
  - 环境风险
  district: 临平区
  lat: 30.400179
  lon: 120.305822
  geocode_level: 兴趣点
- name: 杭州同福永酿酒有限公司
  address: ''
  label: 杭州同福永酿酒有限公司
  data_source: ''
  source_type: official
  data_date: 2025-03
  categories:
  - 环境风险
  district: 临平区
  lat: 30.430868
  lon: 120.144993
  geocode_level: 兴趣点
- name: 杭州伟业纺织有限公司
  address: ''
  label: 杭州伟业纺织有限公司
  data_source: ''
  source_type: official
  data_date: 2025-03
  categories:
  - 环境风险
  district: 临平区
  lat: 30.404371
  lon: 120.177142
  geocode_level: 兴趣点
- name: 杭州新希望双峰乳业有限公司
  address: ''
  label: 杭州新希望双峰乳业有限公司
  data_source: ''
  source_type: official
  data_date: 2025-03
  categories:
  - 环境风险
  district: 临平区
  lat: 30.446307
  lon: 120.288335
  geocode_level: 兴趣点
- name: 杭州鑫龙印染有限公司
  address: ''
  label: 杭州鑫龙印染有限公司
  data_source: ''
  source_type: official
  data_date: 2025-03
  categories:
  - 环境风险
  district: 临平区
  lat: 30.452385
  lon: 120.292341
  geocode_level: 兴趣点
- name: 杭州益品新五丰药业有限公司
  address: ''
  label: 杭州益品新五丰药业有限公司
  data_source: ''
  source_type: official
  data_date: 2025-03
  categories:
  - 环境风险
  district: 临平区
  lat: 30.401563
  lon: 120.275624
  geocode_level: 兴趣点
- name: 杭州有信丝绸有限公司
  address: ''
  label: 杭州有信丝绸有限公司
  data_source: ''
  source_type: official
  data_date: 2025-03
  categories:
  - 环境风险
  district: 临平区
  lat: 30.500257
  lon: 120.265908
  geocode_level: 兴趣点
- name: 杭州余杭帮达织造厂
  address: ''
  label: 杭州余杭帮达织造厂
  data_source: ''
  source_type: official
  data_date: 2025-03
  categories:
  - 环境风险
  district: 临平区
  lat: 30.469158
  lon: 120.29374
  geocode_level: 兴趣点
- name: 杭州余杭尖峰实业有限公司
  address: ''
  label: 杭州余杭尖峰实业有限公司
  data_source: ''
  source_type: official
  data_date: 2025-03
  categories:
  - 环境风险
  district: 临平区
  lat: 30.480741
  lon: 120.230756
  geocode_level: 兴趣点
- name: 杭州远峰纺织原料制造有限公司
  address: ''
  label: 杭州远峰纺织原料制造有限公司
  data_source: ''
  source_type: official
  data_date: 2025-03
  categories:
  - 环境风险
  district: 临平区
  lat: 30.39302
  lon: 120.163053
  geocode_level: 兴趣点
- name: 杭州中天科技有限公司
  address: ''
  label: 杭州中天科技有限公司
  data_source: ''
  source_type: official
  data_date: 2025-03
  categories:
  - 环境风险
  district: 临平区
  lat: 30.419154
  lon: 120.299222
  geocode_level: 区县
- name: 华贝纳（杭州）毛纺染整有限公司
  address: ''
  label: 华贝纳（杭州）毛纺染整有限公司
  data_source: ''
  source_type: official
  data_date: 2025-03
  categories:
  - 环境风险
  district: 临平区
  lat: 30.454952
  lon: 120.320091
  geocode_level: 兴趣点
- name: 华润雪花啤酒（杭州）有限公司
  address: ''
  label: 华润雪花啤酒（杭州）有限公司
  data_source: ''
  source_type: official
  data_date: 2025-03
  categories:
  - 环境风险
  district: 临平区
  lat: 30.461009
  lon: 120.28366
  geocode_level: 兴趣点
- name: 欧文斯科宁复合材料（中国）有限公司
  address: ''
  label: 欧文斯科宁复合材料（中国）有限公司
  data_source: ''
  source_type: official
  data_date: 2025-03
  categories:
  - 环境风险
  district: 临平区
  lat: 30.419154
  lon: 120.299222
  geocode_level: 区县
- name: 夏尔巴生物技术（杭州）有限公司
  address: ''
  label: 夏尔巴生物技术（杭州）有限公司
  data_source: ''
  source_type: official
  data_date: 2025-03
  categories:
  - 环境风险
  district: 临平区
  lat: 30.419154
  lon: 120.299222
  geocode_level: 区县
- name: 杏辉天力（杭州）药业有限公司
  address: ''
  label: 杏辉天力（杭州）药业有限公司
  data_source: ''
  source_type: official
  data_date: 2025-03
  categories:
  - 环境风险
  district: 临平区
  lat: 30.442073
  lon: 120.311653
  geocode_level: 兴趣点
- name: 兆丰（杭州）纺织品有限公司
  address: ''
  label: 兆丰（杭州）纺织品有限公司
  data_source: ''
  source_type: official
  data_date: 2025-03
  categories:
  - 环境风险
  district: 临平区
  lat: 30.457075
  lon: 120.327875
  geocode_level: 兴趣点
- name: 浙江春风动力股份有限公司
  address: ''
  label: 浙江春风动力股份有限公司
  data_source: ''
  source_type: official
  data_date: 2025-03
  categories:
  - 环境风险
  district: 临平区
  lat: 30.437889
  lon: 120.25178
  geocode_level: 兴趣点
- name: 浙江美术地毯制造有限公司
  address: ''
  label: 浙江美术地毯制造有限公司
  data_source: ''
  source_type: official
  data_date: 2025-03
  categories:
  - 环境风险
  district: 临平区
  lat: 30.456733
  lon: 120.321742
  geocode_level: 兴趣点
- name: 浙江普利药业有限公司
  address: ''
  label: 浙江普利药业有限公司
  data_source: ''
  source_type: official
  data_date: 2025-03
  categories:
  - 环境风险
  district: 临平区
  lat: 30.419154
  lon: 120.299222
  geocode_level: 区县
- name: 浙江天元生物药业有限公司
  address: ''
  label: 浙江天元生物药业有限公司
  data_source: ''
  source_type: official
  data_date: 2025-03
  categories:
  - 环境风险
  district: 临平区
  lat: 30.442008
  lon: 120.292181
  geocode_level: 兴趣点
- name: 浙江喜得宝丝绸科技有限公司
  address: ''
  label: 浙江喜得宝丝绸科技有限公司
  data_source: ''
  source_type: official
  data_date: 2025-03
  categories:
  - 环境风险
  district: 临平区
  lat: 30.456312
  lon: 120.312329
  geocode_level: 兴趣点
- name: 杭州川印科技有限公司
  address: ''
  label: 杭州川印科技有限公司
  data_source: ''
  source_type: official
  data_date: 2025-03
  categories:
  - 环境风险
  district: 临平区
  lat: 30.419154
  lon: 120.299222
  geocode_level: 区县
- name: 杭州大洲物资再生利用有限公司
  address: ''
  label: 杭州大洲物资再生利用有限公司
  data_source: ''
  source_type: official
  data_date: 2025-03
  categories:
  - 环境风险
  district: 临平区
  lat: 30.449525
  lon: 120.165375
  geocode_level: 兴趣点
- name: 杭州非得盛纺织品有限公司
  address: ''
  label: 杭州非得盛纺织品有限公司
  data_source: ''
  source_type: official
  data_date: 2025-03
  categories:
  - 环境风险
  district: 临平区
  lat: 30.419154
  lon: 120.299222
  geocode_level: 区县
- name: 杭州孚能能源科技有限公司
  address: ''
  label: 杭州孚能能源科技有限公司
  data_source: ''
  source_type: official
  data_date: 2025-03
  categories:
  - 环境风险
  district: 临平区
  lat: 30.419154
  lon: 120.299222
  geocode_level: 区县
- name: 杭州海得龙塑胶新材料有限公司
  address: ''
  label: 杭州海得龙塑胶新材料有限公司
  data_source: ''
  source_type: official
  data_date: 2025-03
  categories:
  - 环境风险
  district: 临平区
  lat: 30.499874
  lon: 120.26413
  geocode_level: 兴趣点
- name: 杭州临平新奥能源发展有限公司
  address: ''
  label: 杭州临平新奥能源发展有限公司
  data_source: ''
  source_type: official
  data_date: 2025-03
  categories:
  - 环境风险
  district: 临平区
  lat: 30.456522
  lon: 120.30482
  geocode_level: 兴趣点
- name: 杭州临平新奥能源发展有限公司5 号站
  address: ''
  label: 杭州临平新奥能源发展有限公司5 号站
  data_source: ''
  source_type: official
  data_date: 2025-03
  categories:
  - 环境风险
  district: 临平区
  lat: 30.456522
  lon: 120.30482
  geocode_level: 兴趣点
- name: 杭州神彩生物材料有限公司
  address: ''
  label: 杭州神彩生物材料有限公司
  data_source: ''
  source_type: official
  data_date: 2025-03
  categories:
  - 环境风险
  district: 临平区
  lat: 30.462278
  lon: 120.168433
  geocode_level: 兴趣点
- name: 杭州盛诺植绒有限公司
  address: ''
  label: 杭州盛诺植绒有限公司
  data_source: ''
  source_type: official
  data_date: 2025-03
  categories:
  - 环境风险
  district: 临平区
  lat: 30.481185
  lon: 120.316753
  geocode_level: 兴趣点
- name: 杭州天地数码科技股份有限公司
  address: ''
  label: 杭州天地数码科技股份有限公司
  data_source: ''
  source_type: official
  data_date: 2025-03
  categories:
  - 环境风险
  district: 临平区
  lat: 30.464905
  lon: 120.257535
  geocode_level: 兴趣点
- name: 杭州一胜布艺有限公司
  address: ''
  label: 杭州一胜布艺有限公司
  data_source: ''
  source_type: official
  data_date: 2025-03
  categories:
  - 环境风险
  district: 临平区
  lat: 30.451372
  lon: 120.328328
  geocode_level: 兴趣点
- name: 杭州余杭恒丰布艺有限公司
  address: ''
  label: 杭州余杭恒丰布艺有限公司
  data_source: ''
  source_type: official
  data_date: 2025-03
  categories:
  - 环境风险
  district: 临平区
  lat: 30.451033
  lon: 120.327458
  geocode_level: 兴趣点
- name: 杭州铸业数码纺织技术有限公司
  address: ''
  label: 杭州铸业数码纺织技术有限公司
  data_source: ''
  source_type: official
  data_date: 2025-03
  categories:
  - 环境风险
  district: 临平区
  lat: 30.419154
  lon: 120.299222
  geocode_level: 区县
- name: 图亨科技（杭州）有限公司
  address: ''
  label: 图亨科技（杭州）有限公司
  data_source: ''
  source_type: official
  data_date: 2025-03
  categories:
  - 环境风险
  district: 临平区
  lat: 30.419154
  lon: 120.299222
  geocode_level: 区县
- name: 浙江鸿辰新材料科技有限公司
  address: ''
  label: 浙江鸿辰新材料科技有限公司
  data_source: ''
  source_type: official
  data_date: 2025-03
  categories:
  - 环境风险
  district: 临平区
  lat: 30.445181
  lon: 120.322244
  geocode_level: 兴趣点
- name: 浙江华辰新材股份有限公司
  address: ''
  label: 浙江华辰新材股份有限公司
  data_source: ''
  source_type: official
  data_date: 2025-03
  categories:
  - 环境风险
  district: 临平区
  lat: 30.488245
  lon: 120.276363
  geocode_level: 兴趣点
- name: 浙江普星蓝天然气发电有限公司
  address: ''
  label: 浙江普星蓝天然气发电有限公司
  data_source: ''
  source_type: official
  data_date: 2025-03
  categories:
  - 环境风险
  district: 临平区
  lat: 30.388094
  lon: 120.131369
  geocode_level: 兴趣点
- name: 浙江四通新材料科技股份有限公司
  address: ''
  label: 浙江四通新材料科技股份有限公司
  data_source: ''
  source_type: official
  data_date: 2025-03
  categories:
  - 环境风险
  district: 临平区
  lat: 30.458986
  lon: 120.327676
  geocode_level: 兴趣点
- name: 浙江盈烁新材料有限责任公司
  address: ''
  label: 浙江盈烁新材料有限责任公司
  data_source: ''
  source_type: official
  data_date: 2025-03
  categories:
  - 环境风险
  district: 临平区
  lat: 30.419154
  lon: 120.299222
  geocode_level: 区县
- name: 东点（杭州）医学科技有限公司
  address: ''
  label: 东点（杭州）医学科技有限公司
  data_source: ''
  source_type: official
  data_date: 2025-03
  categories:
  - 环境风险
  district: 临平区
- name: 杭州邦尔骨科医院有限公司
  address: ''
  label: 杭州邦尔骨科医院有限公司
  data_source: ''
  source_type: official
  data_date: 2025-03
  categories:
  - 环境风险
  district: 临平区
  lat: 30.419154
  lon: 120.299222
  geocode_level: 区县
- name: 杭州川空通用设备有限公司
  address: ''
  label: 杭州川空通用设备有限公司
  data_source: ''
  source_type: official
  data_date: 2025-03
  categories:
  - 环境风险
  district: 临平区
  lat: 30.376038
  lon: 120.306669
  geocode_level: 兴趣点
- name: 杭州东华链条集团有限公司
  address: ''
  label: 杭州东华链条集团有限公司
  data_source: ''
  source_type: official
  data_date: 2025-03
  categories:
  - 环境风险
  district: 临平区
  lat: 30.456265
  lon: 120.294276
  geocode_level: 兴趣点
- name: 杭州福斯达深冷装备股份有限公司
  address: ''
  label: 杭州福斯达深冷装备股份有限公司
  data_source: ''
  source_type: official
  data_date: 2025-03
  categories:
  - 环境风险
  district: 临平区
  lat: 30.444499
  lon: 120.246984
  geocode_level: 兴趣点
- name: 杭州葛饰化妆包材有限公司
  address: ''
  label: 杭州葛饰化妆包材有限公司
  data_source: ''
  source_type: official
  data_date: 2025-03
  categories:
  - 环境风险
  district: 临平区
  lat: 30.408909
  lon: 120.252992
  geocode_level: 兴趣点
- name: 杭州广丰实业有限公司
  address: ''
  label: 杭州广丰实业有限公司
  data_source: ''
  source_type: official
  data_date: 2025-03
  categories:
  - 环境风险
  district: 临平区
  lat: 30.456335
  lon: 120.171998
  geocode_level: 兴趣点
- name: 杭州国能汽轮工程有限公司
  address: ''
  label: 杭州国能汽轮工程有限公司
  data_source: ''
  source_type: official
  data_date: 2025-03
  categories:
  - 环境风险
  district: 临平区
  lat: 30.450509
  lon: 120.16904
  geocode_level: 兴趣点
- name: 杭州宏特粉沫镀锌有限公司
  address: ''
  label: 杭州宏特粉沫镀锌有限公司
  data_source: ''
  source_type: official
  data_date: 2025-03
  categories:
  - 环境风险
  district: 临平区
  lat: 30.419154
  lon: 120.299222
  geocode_level: 区县
- name: 杭州华深金属制品有限公司
  address: ''
  label: 杭州华深金属制品有限公司
  data_source: ''
  source_type: official
  data_date: 2025-03
  categories:
  - 环境风险
  district: 临平区
  lat: 30.419154
  lon: 120.299222
  geocode_level: 区县
- name: 杭州华源前线能源设备有限公司
  address: ''
  label: 杭州华源前线能源设备有限公司
  data_source: ''
  source_type: official
  data_date: 2025-03
  categories:
  - 环境风险
  district: 临平区
  lat: 30.451142
  lon: 120.165446
  geocode_level: 兴趣点
- name: 杭州金杭新材料有限公司
  address: ''
  label: 杭州金杭新材料有限公司
  data_source: ''
  source_type: official
  data_date: 2025-03
  categories:
  - 环境风险
  district: 临平区
  lat: 30.419154
  lon: 120.299222
  geocode_level: 区县
- name: 杭州金升金属制品有限公司
  address: ''
  label: 杭州金升金属制品有限公司
  data_source: ''
  source_type: official
  data_date: 2025-03
  categories:
  - 环境风险
  district: 临平区
  lat: 30.455629
  lon: 120.175259
  geocode_level: 兴趣点
- name: 杭州利森无损检测设备有限公司
  address: ''
  label: 杭州利森无损检测设备有限公司
  data_source: ''
  source_type: official
  data_date: 2025-03
  categories:
  - 环境风险
  district: 临平区
  lat: 30.419154
  lon: 120.299222
  geocode_level: 区县
- name: 杭州汽轮动力集团股份有限公司
  address: ''
  label: 杭州汽轮动力集团股份有限公司
  data_source: ''
  source_type: official
  data_date: 2025-03
  categories:
  - 环境风险
  district: 临平区
  lat: 30.463386
  lon: 120.247637
  geocode_level: 兴趣点
- name: 杭州荣达锅炉容器有限公司
  address: ''
  label: 杭州荣达锅炉容器有限公司
  data_source: ''
  source_type: official
  data_date: 2025-03
  categories:
  - 环境风险
  district: 临平区
  lat: 30.349105
  lon: 120.257657
  geocode_level: 兴趣点
- name: 杭州荣探无损检测设备有限公司
  address: ''
  label: 杭州荣探无损检测设备有限公司
  data_source: ''
  source_type: official
  data_date: 2025-03
  categories:
  - 环境风险
  district: 临平区
  lat: 30.400569
  lon: 120.144803
  geocode_level: 兴趣点
- name: 杭州睿昇半导体科技有限公司
  address: ''
  label: 杭州睿昇半导体科技有限公司
  data_source: ''
  source_type: official
  data_date: 2025-03
  categories:
  - 环境风险
  district: 临平区
  lat: 30.457771
  lon: 120.248046
  geocode_level: 兴趣点
- name: 杭州市临平区中医院
  address: ''
  label: 杭州市临平区中医院
  data_source: ''
  source_type: official
  data_date: 2025-03
  categories:
  - 环境风险
  district: 临平区
  lat: 30.470233
  lon: 120.212456
  geocode_level: 公交地铁站点
- name: 杭州塘栖金属压延有限公司
  address: ''
  label: 杭州塘栖金属压延有限公司
  data_source: ''
  source_type: official
  data_date: 2025-03
  categories:
  - 环境风险
  district: 临平区
  lat: 30.465335
  lon: 120.175241
  geocode_level: 兴趣点
- name: 杭州塘栖金属制品有限公司
  address: ''
  label: 杭州塘栖金属制品有限公司
  data_source: ''
  source_type: official
  data_date: 2025-03
  categories:
  - 环境风险
  district: 临平区
  lat: 30.461194
  lon: 120.172496
  geocode_level: 兴趣点
- name: 杭州沃尔夫链条有限公司
  address: ''
  label: 杭州沃尔夫链条有限公司
  data_source: ''
  source_type: official
  data_date: 2025-03
  categories:
  - 环境风险
  district: 临平区
  lat: 30.462727
  lon: 120.2922
  geocode_level: 兴趣点
- name: 杭州朱炳仁铜艺股份有限公司
  address: ''
  label: 杭州朱炳仁铜艺股份有限公司
  data_source: ''
  source_type: official
  data_date: 2025-03
  categories:
  - 环境风险
  district: 临平区
  lat: 30.458964
  lon: 120.246638
  geocode_level: 兴趣点
- name: 杭州自强链传动有限公司
  address: ''
  label: 杭州自强链传动有限公司
  data_source: ''
  source_type: official
  data_date: 2025-03
  categories:
  - 环境风险
  district: 临平区
  lat: 30.456283
  lon: 120.294343
  geocode_level: 兴趣点
- name: 树诚智能科技（杭州）有限公司
  address: ''
  label: 树诚智能科技（杭州）有限公司
  data_source: ''
  source_type: official
  data_date: 2025-03
  categories:
  - 环境风险
  district: 临平区
  lat: 30.419154
  lon: 120.299222
  geocode_level: 区县
- name: 铁流股份有限公司
  address: ''
  label: 铁流股份有限公司
  data_source: ''
  source_type: official
  data_date: 2025-03
  categories:
  - 环境风险
  district: 临平区
  lat: 30.451994
  lon: 120.246948
  geocode_level: 兴趣点
- name: 西子清洁能源装备制造股份有限公司崇贤分公司
  address: ''
  label: 西子清洁能源装备制造股份有限公司崇贤分公司
  data_source: ''
  source_type: official
  data_date: 2025-03
  categories:
  - 环境风险
  district: 临平区
  lat: 30.396819
  lon: 120.170183
  geocode_level: 住宅区
- name: 银都餐饮设备股份有限公司
  address: ''
  label: 银都餐饮设备股份有限公司
  data_source: ''
  source_type: official
  data_date: 2025-03
  categories:
  - 环境风险
  district: 临平区
  lat: 30.408621
  lon: 120.26268
  geocode_level: 兴趣点
- name: 浙江钢信检测技术有限公司
  address: ''
  label: 浙江钢信检测技术有限公司
  data_source: ''
  source_type: official
  data_date: 2025-03
  categories:
  - 环境风险
  district: 临平区
  lat: 30.458636
  lon: 120.244133
  geocode_level: 兴趣点
- name: 浙江翰达工程检测有限公司
  address: ''
  label: 浙江翰达工程检测有限公司
  data_source: ''
  source_type: official
  data_date: 2025-03
  categories:
  - 环境风险
  district: 临平区
  lat: 30.45747
  lon: 120.242961
  geocode_level: 兴趣点
- name: 浙江华江科技股份有限公司
  address: ''
  label: 浙江华江科技股份有限公司
  data_source: ''
  source_type: official
  data_date: 2025-03
  categories:
  - 环境风险
  district: 临平区
  lat: 30.452257
  lon: 120.169567
  geocode_level: 兴趣点
- name: 浙江美浓世纪集团有限公司
  address: ''
  label: 浙江美浓世纪集团有限公司
  data_source: ''
  source_type: official
  data_date: 2025-03
  categories:
  - 环境风险
  district: 临平区
  lat: 30.321716
  lon: 120.063759
  geocode_level: 跨区
- name: 浙江南都鸿芯动力科技有限公司
  address: ''
  label: 浙江南都鸿芯动力科技有限公司
  data_source: ''
  source_type: official
  data_date: 2025-03
  categories:
  - 环境风险
  district: 临平区
  lat: 30.419154
  lon: 120.299222
  geocode_level: 区县
- name: 浙江双子智能装备有限公司
  address: ''
  label: 浙江双子智能装备有限公司
  data_source: ''
  source_type: official
  data_date: 2025-03
  categories:
  - 环境风险
  district: 临平区
  lat: 30.446434
  lon: 120.323853
  geocode_level: 兴趣点
- name: 浙江泰昌实业有限公司
  address: ''
  label: 浙江泰昌实业有限公司
  data_source: ''
  source_type: official
  data_date: 2025-03
  categories:
  - 环境风险
  district: 临平区
  lat: 30.460443
  lon: 120.168817
  geocode_level: 兴趣点
- name: 浙江威尔达化工有限公司
  address: ''
  label: 浙江威尔达化工有限公司
  data_source: ''
  source_type: official
  data_date: 2025-03
  categories:
  - 环境风险
  district: 临平区
  lat: 30.447569
  lon: 120.220469
  geocode_level: 兴趣点
- name: 浙江银都辐照技术有限公司
  address: ''
  label: 浙江银都辐照技术有限公司
  data_source: ''
  source_type: official
  data_date: 2025-03
  categories:
  - 环境风险
  district: 临平区
  lat: 30.408027
  lon: 120.253407
  geocode_level: 兴趣点
- name: 浙江中能工程检测有限公司
  address: ''
  label: 浙江中能工程检测有限公司
  data_source: ''
  source_type: official
  data_date: 2025-03
  categories:
  - 环境风险
  district: 临平区
  lat: 30.47235
  lon: 120.254607
  geocode_level: 兴趣点
- name: 中塑新材料科技（杭州）有限公司
  address: ''
  label: 中塑新材料科技（杭州）有限公司
  data_source: ''
  source_type: official
  data_date: 2025-03
  categories:
  - 环境风险
  district: 临平区
  lat: 30.471977
  lon: 120.23469
  geocode_level: 兴趣点
