meta:
  dpi: 200
  title: 杭州余杭区2025年重点污染源单位地理分布图
  subtitle: 数据来源：杭州市生态环境局2025年度环境监管重点单位名录  |  共63家  |  坐标：高德地图
  output_path: ./杭州_余杭区_2025_output.png
map:
  figsize:
  - 18
  - 14
  padding: 500
  zoom: 12
  basemap_alpha: 0.95
gaode:
  key: ''
  rate_limit: 0.15
  cache_file: /Users/wong/.hermes/code/map2image/data/杭州/geocode_cache_杭州.json
  city: 杭州
  provider: gaode
risk_zones:
  enabled: true
  radius_meters: 1000
  fill_color: '#FF4444'
  fill_alpha: 0.12
  edge_color: '#CC0000'
  edge_width: 0.8
  edge_alpha: 0.25
boundary:
  coords: []
categories:
  水环境:
    display: 水环境重点排污
    color: '#CC0000'
    marker: o
  大气环境:
    display: 大气环境重点排污
    color: '#FF2200'
    marker: o
  土壤污染:
    display: 土壤污染重点监管
    color: '#FF6600'
    marker: o
  环境风险:
    display: 环境风险重点管控
    color: '#9933CC'
    marker: o
  噪声:
    display: 噪声重点排污
    color: '#0066CC'
    marker: ^
  辐射安全:
    display: 辐射安全许可证
    color: '#9933CC'
    marker: '*'
  地下水:
    display: 地下水污染防治
    color: '#0099CC'
    marker: s
enterprises:
- name: 北控（杭州）环境工程有限公司
  address: ''
  label: 北控（杭州）环境工程有限公司
  data_source: ''
  source_type: official
  data_date: 2025-03
  categories:
  - 环境风险
  district: 余杭区
  lat: 30.276324
  lon: 119.966706
  geocode_level: 兴趣点
- name: 光大环保能源（杭州）有限公司
  address: ''
  label: 光大环保能源（杭州）有限公司
  data_source: ''
  source_type: official
  data_date: 2025-03
  categories:
  - 环境风险
  district: 余杭区
  lat: 30.235202
  lon: 119.870022
  geocode_level: 兴趣点
- name: 杭州诚品实业有限公司
  address: ''
  label: 杭州诚品实业有限公司
  data_source: ''
  source_type: official
  data_date: 2025-03
  categories:
  - 环境风险
  district: 余杭区
  lat: 30.310105
  lon: 119.895864
  geocode_level: 兴趣点
- name: 杭州大地海洋环保股份有限公司
  address: ''
  label: 杭州大地海洋环保股份有限公司
  data_source: ''
  source_type: official
  data_date: 2025-03
  categories:
  - 环境风险
  district: 余杭区
  lat: 30.462309
  lon: 120.067454
  geocode_level: 兴趣点
- name: 杭州福达纺织品印染有限公司
  address: ''
  label: 杭州福达纺织品印染有限公司
  data_source: ''
  source_type: official
  data_date: 2025-03
  categories:
  - 环境风险
  district: 余杭区
  lat: 30.465373
  lon: 120.141029
  geocode_level: 兴趣点
- name: 杭州高明家纺科技有限公司
  address: ''
  label: 杭州高明家纺科技有限公司
  data_source: ''
  source_type: official
  data_date: 2025-03
  categories:
  - 环境风险
  district: 余杭区
  lat: 30.273705
  lon: 119.978742
  geocode_level: 区县
- name: 杭州高烯科技有限公司
  address: ''
  label: 杭州高烯科技有限公司
  data_source: ''
  source_type: official
  data_date: 2025-03
  categories:
  - 环境风险
  district: 余杭区
  lat: 30.342766
  lon: 120.018866
  geocode_level: 兴趣点
- name: 杭州海尚科技有限公司
  address: ''
  label: 杭州海尚科技有限公司
  data_source: ''
  source_type: official
  data_date: 2025-03
  categories:
  - 环境风险
  district: 余杭区
  lat: 30.453698
  lon: 120.109093
  geocode_level: 兴趣点
- name: 杭州鸿光浪花豆业食品有限公司
  address: ''
  label: 杭州鸿光浪花豆业食品有限公司
  data_source: ''
  source_type: official
  data_date: 2025-03
  categories:
  - 环境风险
  district: 余杭区
  lat: 30.370256
  lon: 119.988508
  geocode_level: 兴趣点
- name: 杭州华光焊接新材料股份有限公司
  address: ''
  label: 杭州华光焊接新材料股份有限公司
  data_source: ''
  source_type: official
  data_date: 2025-03
  categories:
  - 环境风险
  district: 余杭区
  lat: 30.448999
  lon: 120.073936
  geocode_level: 兴趣点
- name: 杭州久诚仁和电镀有限公司
  address: ''
  label: 杭州久诚仁和电镀有限公司
  data_source: ''
  source_type: official
  data_date: 2025-03
  categories:
  - 环境风险
  district: 余杭区
  lat: 30.396581
  lon: 120.091301
  geocode_level: 兴趣点
- name: 杭州茗宝生物科技有限公司
  address: ''
  label: 杭州茗宝生物科技有限公司
  data_source: ''
  source_type: official
  data_date: 2025-03
  categories:
  - 环境风险
  district: 余杭区
  lat: 30.21675
  lon: 119.963378
  geocode_level: 兴趣点
- name: 杭州钱江制冷压缩机集团有限公司
  address: ''
  label: 杭州钱江制冷压缩机集团有限公司
  data_source: ''
  source_type: official
  data_date: 2025-03
  categories:
  - 环境风险
  district: 余杭区
  lat: 30.297127
  lon: 119.903127
  geocode_level: 兴趣点
- name: 杭州市余杭区第一人民医院
  address: ''
  label: 杭州市余杭区第一人民医院
  data_source: ''
  source_type: official
  data_date: 2025-03
  categories:
  - 环境风险
  district: 余杭区
  lat: 30.273705
  lon: 119.978742
  geocode_level: 区县
- name: 杭州市种猪试验场
  address: ''
  label: 杭州市种猪试验场
  data_source: ''
  source_type: official
  data_date: 2025-03
  categories:
  - 环境风险
  district: 余杭区
  lat: 30.408463
  lon: 119.903921
  geocode_level: 兴趣点
- name: 杭州余杭净水有限公司径山污水处理厂
  address: ''
  label: 杭州余杭净水有限公司径山污水处理厂
  data_source: ''
  source_type: official
  data_date: 2025-03
  categories:
  - 环境风险
  district: 余杭区
  lat: 30.374949
  lon: 119.865257
  geocode_level: 乡镇
- name: 杭州余杭净水有限公司良渚污水处理厂
  address: ''
  label: 杭州余杭净水有限公司良渚污水处理厂
  data_source: ''
  source_type: official
  data_date: 2025-03
  categories:
  - 环境风险
  district: 余杭区
  lat: 30.359679
  lon: 120.09624
  geocode_level: 乡镇
- name: 杭州余杭净水有限公司余杭污水处理厂
  address: ''
  label: 杭州余杭净水有限公司余杭污水处理厂
  data_source: ''
  source_type: official
  data_date: 2025-03
  categories:
  - 环境风险
  district: 余杭区
  lat: 30.273705
  lon: 119.978742
  geocode_level: 区县
- name: 杭州云会五金电镀有限公司
  address: ''
  label: 杭州云会五金电镀有限公司
  data_source: ''
  source_type: official
  data_date: 2025-03
  categories:
  - 环境风险
  district: 余杭区
  lat: 30.397709
  lon: 120.091444
  geocode_level: 兴趣点
- name: 杭州知味观食品有限公司
  address: ''
  label: 杭州知味观食品有限公司
  data_source: ''
  source_type: official
  data_date: 2025-03
  categories:
  - 环境风险
  district: 余杭区
  lat: 30.368251
  lon: 119.985994
  geocode_level: 兴趣点
- name: 杭州中葆生物科技有限公司
  address: ''
  label: 杭州中葆生物科技有限公司
  data_source: ''
  source_type: official
  data_date: 2025-03
  categories:
  - 环境风险
  district: 余杭区
  lat: 30.273705
  lon: 119.978742
  geocode_level: 区县
- name: 鸿星科技（集团）股份有限公司
  address: ''
  label: 鸿星科技（集团）股份有限公司
  data_source: ''
  source_type: official
  data_date: 2025-03
  categories:
  - 环境风险
  district: 余杭区
  lat: 30.381707
  lon: 120.037489
  geocode_level: 兴趣点
- name: 南方泵业股份有限公司
  address: ''
  label: 南方泵业股份有限公司
  data_source: ''
  source_type: official
  data_date: 2025-03
  categories:
  - 环境风险
  district: 余杭区
  lat: 30.437349
  lon: 120.090972
  geocode_level: 兴趣点
- name: 浙江大学医学院附属第一医院（总部一期）
  address: ''
  label: 浙江大学医学院附属第一医院（总部一期）
  data_source: ''
  source_type: official
  data_date: 2025-03
  categories:
  - 环境风险
  district: 余杭区
  lat: 30.133575
  lon: 120.080325
  geocode_level: 跨区
- name: 浙江省立同德医院（浙江省精神卫生研究院）闲林院区
  address: ''
  label: 浙江省立同德医院（浙江省精神卫生研究院）闲林院区
  data_source: ''
  source_type: official
  data_date: 2025-03
  categories:
  - 环境风险
  district: 余杭区
  lat: 30.284158
  lon: 120.11966
  geocode_level: 跨区
- name: 杭州市工业企业投资发展有限公司
  address: ''
  label: 杭州市工业企业投资发展有限公司
  data_source: ''
  source_type: official
  data_date: 2025-03
  categories:
  - 环境风险
  district: 余杭区
  lat: 30.273705
  lon: 119.978742
  geocode_level: 区县
- name: 杭州博创生物科技有限公司
  address: ''
  label: 杭州博创生物科技有限公司
  data_source: ''
  source_type: official
  data_date: 2025-03
  categories:
  - 环境风险
  district: 余杭区
  lat: 30.273705
  lon: 119.978742
  geocode_level: 区县
- name: 杭州九峰新材料科技有限公司
  address: ''
  label: 杭州九峰新材料科技有限公司
  data_source: ''
  source_type: official
  data_date: 2025-03
  categories:
  - 环境风险
  district: 余杭区
  lat: 30.232355
  lon: 119.865069
  geocode_level: 村庄
- name: 杭州丽德纺织助剂有限公司
  address: ''
  label: 杭州丽德纺织助剂有限公司
  data_source: ''
  source_type: official
  data_date: 2025-03
  categories:
  - 环境风险
  district: 余杭区
  lat: 30.39693
  lon: 120.057472
  geocode_level: 兴趣点
- name: 杭州梁运储运有限公司
  address: ''
  label: 杭州梁运储运有限公司
  data_source: ''
  source_type: official
  data_date: 2025-03
  categories:
  - 环境风险
  district: 余杭区
  lat: 30.442052
  lon: 120.145882
  geocode_level: 兴趣点
- name: 杭州益利素勒精线有限公司
  address: ''
  label: 杭州益利素勒精线有限公司
  data_source: ''
  source_type: official
  data_date: 2025-03
  categories:
  - 环境风险
  district: 余杭区
  lat: 30.4109
  lon: 119.926359
  geocode_level: 兴趣点
- name: 杭州市沥青拌和有限公司
  address: ''
  label: 杭州市沥青拌和有限公司
  data_source: ''
  source_type: official
  data_date: 2025-03
  categories:
  - 环境风险
  district: 余杭区
  lat: 30.461979
  lon: 120.068842
  geocode_level: 兴趣点
- name: 杭州紫英合金钢铸造有限公司
  address: ''
  label: 杭州紫英合金钢铸造有限公司
  data_source: ''
  source_type: official
  data_date: 2025-03
  categories:
  - 环境风险
  district: 余杭区
  lat: 30.273705
  lon: 119.978742
  geocode_level: 区县
- name: 东辰智能科技有限公司
  address: ''
  label: 东辰智能科技有限公司
  data_source: ''
  source_type: official
  data_date: 2025-03
  categories:
  - 环境风险
  district: 余杭区
  lat: 30.273705
  lon: 119.978742
  geocode_level: 区县
- name: 杭州比亚迪汽车有限公司
  address: ''
  label: 杭州比亚迪汽车有限公司
  data_source: ''
  source_type: official
  data_date: 2025-03
  categories:
  - 环境风险
  district: 余杭区
  lat: 30.452959
  lon: 120.070462
  geocode_level: 兴趣点
- name: 杭州持正科技股份有限公司
  address: ''
  label: 杭州持正科技股份有限公司
  data_source: ''
  source_type: official
  data_date: 2025-03
  categories:
  - 环境风险
  district: 余杭区
  lat: 30.283889
  lon: 119.967402
  geocode_level: 兴趣点
- name: 杭州点滴再生资源技术有限公司
  address: ''
  label: 杭州点滴再生资源技术有限公司
  data_source: ''
  source_type: official
  data_date: 2025-03
  categories:
  - 环境风险
  district: 余杭区
  lat: 30.390414
  lon: 120.29119
  geocode_level: 跨区
- name: 杭州鼎福铝业有限公司
  address: ''
  label: 杭州鼎福铝业有限公司
  data_source: ''
  source_type: official
  data_date: 2025-03
  categories:
  - 环境风险
  district: 余杭区
  lat: 30.273705
  lon: 119.978742
  geocode_level: 区县
- name: 杭州泛利实业有限公司
  address: ''
  label: 杭州泛利实业有限公司
  data_source: ''
  source_type: official
  data_date: 2025-03
  categories:
  - 环境风险
  district: 余杭区
  lat: 30.375369
  lon: 119.986735
  geocode_level: 兴趣点
- name: 杭州杭辅科技有限公司
  address: ''
  label: 杭州杭辅科技有限公司
  data_source: ''
  source_type: official
  data_date: 2025-03
  categories:
  - 环境风险
  district: 余杭区
  lat: 30.453049
  lon: 120.081713
  geocode_level: 兴趣点
- name: 杭州杭锅工业锅炉有限公司
  address: ''
  label: 杭州杭锅工业锅炉有限公司
  data_source: ''
  source_type: official
  data_date: 2025-03
  categories:
  - 环境风险
  district: 余杭区
  lat: 30.353524
  lon: 120.122278
  geocode_level: 兴趣点
- name: 杭州杭氧低温容器有限公司
  address: ''
  label: 杭州杭氧低温容器有限公司
  data_source: ''
  source_type: official
  data_date: 2025-03
  categories:
  - 环境风险
  district: 余杭区
  lat: 30.461244
  lon: 120.130634
  geocode_level: 兴趣点
- name: 杭州华达喷射真空设备有限公司
  address: ''
  label: 杭州华达喷射真空设备有限公司
  data_source: ''
  source_type: official
  data_date: 2025-03
  categories:
  - 环境风险
  district: 余杭区
  lat: 30.448587
  lon: 120.075014
  geocode_level: 兴趣点
- name: 杭州爵豪科技有限公司
  address: ''
  label: 杭州爵豪科技有限公司
  data_source: ''
  source_type: official
  data_date: 2025-03
  categories:
  - 环境风险
  district: 余杭区
  lat: 30.224803
  lon: 119.929705
  geocode_level: 兴趣点
- name: 杭州联生绝缘材料有限公司
  address: ''
  label: 杭州联生绝缘材料有限公司
  data_source: ''
  source_type: official
  data_date: 2025-03
  categories:
  - 环境风险
  district: 余杭区
  lat: 30.224991
  lon: 119.930358
  geocode_level: 兴趣点
- name: 杭州良联五金机械有限公司
  address: ''
  label: 杭州良联五金机械有限公司
  data_source: ''
  source_type: official
  data_date: 2025-03
  categories:
  - 环境风险
  district: 余杭区
  lat: 30.46179
  lon: 120.138605
  geocode_level: 兴趣点
- name: 杭州彭公铝制品有限公司
  address: ''
  label: 杭州彭公铝制品有限公司
  data_source: ''
  source_type: official
  data_date: 2025-03
  categories:
  - 环境风险
  district: 余杭区
  lat: 30.402018
  lon: 119.917359
  geocode_level: 兴趣点
- name: 杭州求实工程质量检测有限公司
  address: ''
  label: 杭州求实工程质量检测有限公司
  data_source: ''
  source_type: official
  data_date: 2025-03
  categories:
  - 环境风险
  district: 余杭区
  lat: 30.209072
  lon: 119.520669
  geocode_level: 跨区
- name: 杭州申江新型材料科技有限公司
  address: ''
  label: 杭州申江新型材料科技有限公司
  data_source: ''
  source_type: official
  data_date: 2025-03
  categories:
  - 环境风险
  district: 余杭区
  lat: 30.463878
  lon: 120.148213
  geocode_level: 兴趣点
- name: 杭州师范大学
  address: ''
  label: 杭州师范大学
  data_source: ''
  source_type: official
  data_date: 2025-03
  categories:
  - 环境风险
  district: 余杭区
  lat: 30.273705
  lon: 119.978742
  geocode_level: 区县
- name: 杭州天亿空分设备管道有限公司
  address: ''
  label: 杭州天亿空分设备管道有限公司
  data_source: ''
  source_type: official
  data_date: 2025-03
  categories:
  - 环境风险
  district: 余杭区
  lat: 30.374682
  lon: 119.984882
  geocode_level: 兴趣点
- name: 杭州武林机械有限公司
  address: ''
  label: 杭州武林机械有限公司
  data_source: ''
  source_type: official
  data_date: 2025-03
  categories:
  - 环境风险
  district: 余杭区
  lat: 30.421466
  lon: 119.91778
  geocode_level: 兴趣点
- name: 杭州协同化工机械有限公司
  address: ''
  label: 杭州协同化工机械有限公司
  data_source: ''
  source_type: official
  data_date: 2025-03
  categories:
  - 环境风险
  district: 余杭区
  lat: 30.454516
  lon: 120.085951
  geocode_level: 兴趣点
- name: 杭州新坐标科技股份有限公司
  address: ''
  label: 杭州新坐标科技股份有限公司
  data_source: ''
  source_type: official
  data_date: 2025-03
  categories:
  - 环境风险
  district: 余杭区
  lat: 30.276535
  lon: 119.980984
  geocode_level: 兴趣点
- name: 杭州余杭獐山钢瓶有限公司
  address: ''
  label: 杭州余杭獐山钢瓶有限公司
  data_source: ''
  source_type: official
  data_date: 2025-03
  categories:
  - 环境风险
  district: 余杭区
  lat: 30.429369
  lon: 120.085349
  geocode_level: 兴趣点
- name: 杭州元麦汽车有限公司
  address: ''
  label: 杭州元麦汽车有限公司
  data_source: ''
  source_type: official
  data_date: 2025-03
  categories:
  - 环境风险
  district: 余杭区
  lat: 30.239283
  lon: 120.027574
  geocode_level: 兴趣点
- name: 杭州震弘环境科技有限公司
  address: ''
  label: 杭州震弘环境科技有限公司
  data_source: ''
  source_type: official
  data_date: 2025-03
  categories:
  - 环境风险
  district: 余杭区
  lat: 30.273705
  lon: 119.978742
  geocode_level: 区县
- name: 诺瓦特伦（杭州）电子有限公司
  address: ''
  label: 诺瓦特伦（杭州）电子有限公司
  data_source: ''
  source_type: official
  data_date: 2025-03
  categories:
  - 环境风险
  district: 余杭区
  lat: 30.273705
  lon: 119.978742
  geocode_level: 区县
- name: 浙江华正新材料股份有限公司
  address: ''
  label: 浙江华正新材料股份有限公司
  data_source: ''
  source_type: official
  data_date: 2025-03
  categories:
  - 环境风险
  district: 余杭区
  lat: 30.273569
  lon: 119.970393
  geocode_level: 兴趣点
- name: 浙江佳翔辐照技术有限公司
  address: ''
  label: 浙江佳翔辐照技术有限公司
  data_source: ''
  source_type: official
  data_date: 2025-03
  categories:
  - 环境风险
  district: 余杭区
  lat: 30.278599
  lon: 119.983406
  geocode_level: 兴趣点
- name: 浙江康德权科技有限公司
  address: ''
  label: 浙江康德权科技有限公司
  data_source: ''
  source_type: official
  data_date: 2025-03
  categories:
  - 环境风险
  district: 余杭区
  lat: 30.413167
  lon: 120.1203
  geocode_level: 兴趣点
- name: 浙江盛唐环保科技有限公司
  address: ''
  label: 浙江盛唐环保科技有限公司
  data_source: ''
  source_type: official
  data_date: 2025-03
  categories:
  - 环境风险
  district: 余杭区
  lat: 30.462043
  lon: 120.065619
  geocode_level: 兴趣点
- name: 浙江星杭汽车有限公司
  address: ''
  label: 浙江星杭汽车有限公司
  data_source: ''
  source_type: official
  data_date: 2025-03
  categories:
  - 环境风险
  district: 余杭区
  lat: 30.275432
  lon: 119.991348
  geocode_level: 兴趣点
