meta:
  dpi: 200
  title: 泉州晋江市内坑中队2026年重点污染源单位地理分布图
  subtitle: 数据来源：泉州市晋江生态环境局2026年度环境监管重点单位名录  |  共35家  |  坐标：高德地图
  output_path: ./泉州_晋江市_内坑_2026_output.png
map:
  figsize:
  - 18
  - 14
  padding: 500
  zoom: 12
  basemap_alpha: 0.95
gaode:
  key: ''
  rate_limit: 0.15
  city: 泉州
  cache_file: /Users/wong/.hermes/code/map2image/cache/geocode_cache_泉州.json
risk_zones:
  enabled: true
  radius_meters: 1000
  fill_color: '#FF4444'
  fill_alpha: 0.12
  edge_color: '#CC0000'
  edge_width: 0.8
  edge_alpha: 0.25
boundary:
  coords: []
categories:
  水环境:
    display: 水环境重点排污
    color: '#CC0000'
    marker: o
  大气环境:
    display: 大气环境重点排污
    color: '#FF2200'
    marker: o
  土壤污染:
    display: 土壤污染重点监管
    color: '#FF6600'
    marker: o
  环境风险:
    display: 环境风险重点管控
    color: '#9933CC'
    marker: o
  噪声:
    display: 噪声重点排污
    color: '#0066CC'
    marker: ^
  辐射安全:
    display: 辐射安全许可证
    color: '#9933CC'
    marker: '*'
  地下水:
    display: 地下水污染防治
    color: '#0099CC'
    marker: s
enterprises:
- name: 晋江市品质陶瓷建材有限公司
  address: ''
  label: 晋江市品质陶瓷建材有限公司
  data_source: 泉州市晋江生态环境局2026年度环境监管重点单位名录
  source_type: official
  data_date: 2026-03
  categories:
  - 大气环境
  lat: 24.812424
  lon: 118.444117
  geocode_level: POI
  district: 晋江市
- name: 福建省安泰建材实业有限公司
  address: ''
  label: 福建省安泰建材实业有限公司
  data_source: 泉州市晋江生态环境局2026年度环境监管重点单位名录
  source_type: official
  data_date: 2026-03
  categories:
  - 大气环境
  lat: 24.82263
  lon: 118.456874
  geocode_level: POI
  district: 晋江市
- name: 福建省晋江市泗农建材有限公司
  address: ''
  label: 福建省晋江市泗农建材有限公司
  data_source: 泉州市晋江生态环境局2026年度环境监管重点单位名录
  source_type: official
  data_date: 2026-03
  categories:
  - 大气环境
  lat: 24.787592
  lon: 118.441833
  geocode_level: POI
  district: 晋江市
- name: 福建省晋江市内坑白安万兴建材有限公司
  address: ''
  label: 福建省晋江市内坑白安万兴建材有限公司
  data_source: 泉州市晋江生态环境局2026年度环境监管重点单位名录
  source_type: official
  data_date: 2026-03
  categories:
  - 大气环境
  lat: 24.814269
  lon: 118.481449
  geocode_level: POI
  district: 晋江市
- name: 晋江协顺陶瓷有限公司
  address: ''
  label: 晋江协顺陶瓷有限公司
  data_source: 泉州市晋江生态环境局2026年度环境监管重点单位名录
  source_type: official
  data_date: 2026-03
  categories:
  - 大气环境
- name: 晋江市仙梅建陶有限公司
  address: ''
  label: 晋江市仙梅建陶有限公司
  data_source: 泉州市晋江生态环境局2026年度环境监管重点单位名录
  source_type: official
  data_date: 2026-03
  categories:
  - 大气环境
  lat: 24.783589
  lon: 118.435437
  geocode_level: POI
  district: 晋江市
- name: 福建南鹰陶瓷有限公司
  address: ''
  label: 福建南鹰陶瓷有限公司
  data_source: 泉州市晋江生态环境局2026年度环境监管重点单位名录
  source_type: official
  data_date: 2026-03
  categories:
  - 大气环境
  lat: 24.785893
  lon: 118.426556
  geocode_level: POI
  district: 晋江市
- name: 福建省晋江市德铭陶瓷有限公司
  address: ''
  label: 福建省晋江市德铭陶瓷有限公司
  data_source: 泉州市晋江生态环境局2026年度环境监管重点单位名录
  source_type: official
  data_date: 2026-03
  categories:
  - 大气环境
  district: 晋江市
- name: 晋江市鸿佳建材有限公司
  address: ''
  label: 晋江市鸿佳建材有限公司
  data_source: 泉州市晋江生态环境局2026年度环境监管重点单位名录
  source_type: official
  data_date: 2026-03
  categories:
  - 大气环境
  lat: 24.807991
  lon: 118.443553
  geocode_level: POI
  district: 晋江市
- name: 晋江市明兴陶瓷建材有限公司
  address: ''
  label: 晋江市明兴陶瓷建材有限公司
  data_source: 泉州市晋江生态环境局2026年度环境监管重点单位名录
  source_type: official
  data_date: 2026-03
  categories:
  - 大气环境
  lat: 24.822775
  lon: 118.467225
  geocode_level: POI
  district: 晋江市
- name: 福建省晋江市丰盛陶瓷有限公司
  address: ''
  label: 福建省晋江市丰盛陶瓷有限公司
  data_source: 泉州市晋江生态环境局2026年度环境监管重点单位名录
  source_type: official
  data_date: 2026-03
  categories:
  - 大气环境
  lat: 24.843243
  lon: 118.462604
  geocode_level: POI
  district: 晋江市
- name: 福建省晋江市豪荣陶瓷有限公司
  address: ''
  label: 福建省晋江市豪荣陶瓷有限公司
  data_source: 泉州市晋江生态环境局2026年度环境监管重点单位名录
  source_type: official
  data_date: 2026-03
  categories:
  - 大气环境
  lat: 24.82939
  lon: 118.459387
  geocode_level: POI
  district: 晋江市
- name: 晋江市中荣陶瓷建材有限公司
  address: ''
  label: 晋江市中荣陶瓷建材有限公司
  data_source: 泉州市晋江生态环境局2026年度环境监管重点单位名录
  source_type: official
  data_date: 2026-03
  categories:
  - 大气环境
  lat: 24.806499
  lon: 118.447059
  geocode_level: POI
  district: 晋江市
- name: 福建版筑建材有限公司
  address: ''
  label: 福建版筑建材有限公司
  data_source: 泉州市晋江生态环境局2026年度环境监管重点单位名录
  source_type: official
  data_date: 2026-03
  categories:
  - 大气环境
  district: 晋江市
- name: 泉州市正一方陶瓷科技有限公司
  address: ''
  label: 泉州市正一方陶瓷科技有限公司
  data_source: 泉州市晋江生态环境局2026年度环境监管重点单位名录
  source_type: official
  data_date: 2026-03
  categories:
  - 大气环境
  lat: 24.791918
  lon: 118.429505
  geocode_level: POI
- name: 福建省晋江市粤乐建材有限公司
  address: ''
  label: 福建省晋江市粤乐建材有限公司
  data_source: 泉州市晋江生态环境局2026年度环境监管重点单位名录
  source_type: official
  data_date: 2026-03
  categories:
  - 大气环境
  district: 晋江市
- name: 晋江市金盛陶瓷有限公司
  address: ''
  label: 晋江市金盛陶瓷有限公司
  data_source: 泉州市晋江生态环境局2026年度环境监管重点单位名录
  source_type: official
  data_date: 2026-03
  categories:
  - 大气环境
  lat: 24.812755
  lon: 118.442377
  geocode_level: POI
  district: 晋江市
- name: 晋江市长丰陶瓷建材有限公司
  address: ''
  label: 晋江市长丰陶瓷建材有限公司
  data_source: 泉州市晋江生态环境局2026年度环境监管重点单位名录
  source_type: official
  data_date: 2026-03
  categories:
  - 大气环境
  lat: 24.807749
  lon: 118.44701
  geocode_level: POI
  district: 晋江市
- name: 晋江市劲陶陶瓷建材有限公司
  address: ''
  label: 晋江市劲陶陶瓷建材有限公司
  data_source: 泉州市晋江生态环境局2026年度环境监管重点单位名录
  source_type: official
  data_date: 2026-03
  categories:
  - 大气环境
  lat: 24.786443
  lon: 118.436953
  geocode_level: POI
  district: 晋江市
- name: 福建省泉州市联兴建材有限公司
  address: ''
  label: 福建省泉州市联兴建材有限公司
  data_source: 泉州市晋江生态环境局2026年度环境监管重点单位名录
  source_type: official
  data_date: 2026-03
  categories:
  - 大气环境
  lat: 24.811527
  lon: 118.500299
  geocode_level: POI
  district: 晋江市
- name: 福建省晋江宝达陶瓷有限公司
  address: ''
  label: 福建省晋江宝达陶瓷有限公司
  data_source: 泉州市晋江生态环境局2026年度环境监管重点单位名录
  source_type: official
  data_date: 2026-03
  categories:
  - 大气环境
  lat: 24.822165
  lon: 118.511797
  geocode_level: POI
  district: 晋江市
- name: 晋江市国荣陶瓷建材有限公司
  address: ''
  label: 晋江市国荣陶瓷建材有限公司
  data_source: 泉州市晋江生态环境局2026年度环境监管重点单位名录
  source_type: official
  data_date: 2026-03
  categories:
  - 大气环境
  lat: 24.80854
  lon: 118.441975
  geocode_level: POI
  district: 晋江市
- name: 福建省晋江市欣荣瓷砖有限公司
  address: ''
  label: 福建省晋江市欣荣瓷砖有限公司
  data_source: 泉州市晋江生态环境局2026年度环境监管重点单位名录
  source_type: official
  data_date: 2026-03
  categories:
  - 大气环境
  lat: 24.773327
  lon: 118.495199
  geocode_level: POI
  district: 晋江市
- name: 福建省晋江市金庄陶瓷有限公司
  address: ''
  label: 福建省晋江市金庄陶瓷有限公司
  data_source: 泉州市晋江生态环境局2026年度环境监管重点单位名录
  source_type: official
  data_date: 2026-03
  categories:
  - 大气环境
  lat: 24.81378
  lon: 118.446908
  geocode_level: POI
  district: 晋江市
- name: 福建省晋江市内坑泉隆建材有限公司
  address: ''
  label: 福建省晋江市内坑泉隆建材有限公司
  data_source: 泉州市晋江生态环境局2026年度环境监管重点单位名录
  source_type: official
  data_date: 2026-03
  categories:
  - 大气环境
  lat: 24.785075
  lon: 118.429125
  geocode_level: POI
  district: 晋江市
- name: 福建省晋江市火炬建材有限公司
  address: ''
  label: 福建省晋江市火炬建材有限公司
  data_source: 泉州市晋江生态环境局2026年度环境监管重点单位名录
  source_type: official
  data_date: 2026-03
  categories:
  - 大气环境
  lat: 24.781576
  lon: 118.427314
  geocode_level: POI
  district: 晋江市
- name: 福建省晋江市豪田瓷砖有限公司
  address: ''
  label: 福建省晋江市豪田瓷砖有限公司
  data_source: 泉州市晋江生态环境局2026年度环境监管重点单位名录
  source_type: official
  data_date: 2026-03
  categories:
  - 大气环境
  lat: 24.771874
  lon: 118.492895
  geocode_level: POI
  district: 晋江市
- name: 晋江市昆鹏陶瓷建材有限公司
  address: ''
  label: 晋江市昆鹏陶瓷建材有限公司
  data_source: 泉州市晋江生态环境局2026年度环境监管重点单位名录
  source_type: official
  data_date: 2026-03
  categories:
  - 大气环境
  lat: 24.812424
  lon: 118.444117
  geocode_level: POI
  district: 晋江市
- name: 福建省晋江市富盛瓷业有限公司
  address: ''
  label: 福建省晋江市富盛瓷业有限公司
  data_source: 泉州市晋江生态环境局2026年度环境监管重点单位名录
  source_type: official
  data_date: 2026-03
  categories:
  - 大气环境
  lat: 24.822912
  lon: 118.463328
  geocode_level: POI
  district: 晋江市
- name: 福建省晋江豪万陶瓷有限公司
  address: ''
  label: 福建省晋江豪万陶瓷有限公司
  data_source: 泉州市晋江生态环境局2026年度环境监管重点单位名录
  source_type: official
  data_date: 2026-03
  categories:
  - 大气环境
  lat: 24.782335
  lon: 118.432901
  geocode_level: POI
  district: 晋江市
- name: 晋江市内坑圣地亚陶瓷有限公司
  address: ''
  label: 晋江市内坑圣地亚陶瓷有限公司
  data_source: 泉州市晋江生态环境局2026年度环境监管重点单位名录
  source_type: official
  data_date: 2026-03
  categories:
  - 大气环境
  lat: 24.780903
  lon: 118.426444
  geocode_level: POI
  district: 晋江市
- name: 福建省晋江市内坑祥发陶瓷有限公司
  address: ''
  label: 福建省晋江市内坑祥发陶瓷有限公司
  data_source: 泉州市晋江生态环境局2026年度环境监管重点单位名录
  source_type: official
  data_date: 2026-03
  categories:
  - 大气环境
  district: 晋江市
- name: 晋江亿荣建材有限公司
  address: ''
  label: 晋江亿荣建材有限公司
  data_source: 泉州市晋江生态环境局2026年度环境监管重点单位名录
  source_type: official
  data_date: 2026-03
  categories:
  - 大气环境
  lat: 24.773912
  lon: 118.523011
  geocode_level: POI
  district: 晋江市
- name: 晋江佑特陶瓷有限公司
  address: ''
  label: 晋江佑特陶瓷有限公司
  data_source: 泉州市晋江生态环境局2026年度环境监管重点单位名录
  source_type: official
  data_date: 2026-03
  categories:
  - 大气环境
  district: 晋江市
- name: 晋江汉古陶瓷有限公司
  address: ''
  label: 晋江汉古陶瓷有限公司
  data_source: 泉州市晋江生态环境局2026年度环境监管重点单位名录
  source_type: official
  data_date: 2026-03
  categories:
  - 大气环境
  district: 晋江市
